,M,,0000*5B
$GPGSA,A,2,09,27,23,185617.199,A,3453.7091,N,08637.
$GPGGA,185618.199,3453.7100,N,08,,,,,,,,,,4.7,3.5,3.2*3A
$GPGSV,3,1,12,09,43,217,16,27,32,043,28,23,21,184,27,30,00,134,35*75
16,,20,63,337,,21,50,156,*7E
$GPGSV,3,3,12,02,47,306,,32,34,3017.0297,W,2.38,110.08,060419,,,A*74
$GPGGA,185619.199,3453.7125,N,08,M,,0000*57
$GPGSA,A,2,09,27,230338,W,3.40,119.66,060419,,,A*79
$GPGGA,185620.199,3453.7039,N,08637.0202,W,1,03,3.5,30.6,M,-30.6,M,,0000*59
$GPGSA,A,2,09,27,23,,,,,,,,,,4.7,3.5,3.2*3A
$GPRMC,185620.199,A,3453.7039,N,08637.
$GPGGA,185621.199,3453.7018,N,08637.0141,W,1,03,3.5,30.6,M,-30.6,M,,0000*5F
$GPGSA,A,2,09,27,23,,,,,,,,,,4.7,3.5,3.2*3A
$GPRMC$GPGGA,185624.199,3453.7046,N,08,,,,,,,,,,4.7,3.5,3.2*3A
$GPRMC,185624.199,A,3453.7046,N,08637.0161,W,5.23,297.64,060419,,,A*79637.0381,W,1,03,3.5,30.6,M,-30.6637.0296,W,1,03,3.5,30.6,M,-30.6,185629.199,A,3453.7065,N,08637.$GPGGA,185631.199,3453.7185,N,08
,M,,0000*5D
$GPGSA,A,2,09,27,23,,,,,,,,,,4.7,3.5,3.2*3A
$GPGSV,,05,29,300,,03,17,261,*77
$GPRMC,185633.199,A,3453.7163,N,08637.0495,W,0.51,122.81,060419,,,A*71
0479,W,0.70,208.91,060419,,,A*79,,,,,,,,,,4.7,3.5,3.2*3A
$GPRMC0401,W,5.06,288.01,060419,,,A*78
$GPGGA,185640.199,3453.7078,N,08637.0232,W,1,03,3.5,30.6,M,-30.6,M,,0000*59
$GPGSA,A,2,09,27,23,,,,,,,,,,4.7,3.5,3.2*3A
$GPRMC,185640.199,A,3453.7078,N,08637.0232,W,1.09,290.25,060419,,,A*7D

$GPGGA,185643.199,3453.7064,N,08637.0173,W,1,03,3.5,30.6,M,-30.6,M,,0000*51
$GPGSA,A,2,09,27,23,3,1,12,09,43,217,18,27,32,043,270

$GPGGA,185646.199,3453.7078,N,08,M,,0000*5B
$GPGSA,A,2,09,27,230241,W,1.79,311.43,060419,,,A*70$GPGGA,185647.199,3453.7099,N,08,M,,0000*55
$GPGSA,A,2,09,27,23,,,,,,,,,,4.7,3.5,3.2*3A
$GPRMC,185647.199,A,3453.7099,N,08637.0304,W,3.06,294.44,060419,,,A*7F
$GPGGA,185648.199,3453.7180,N,08637.0538,W,1,03,3.5,30.6,M,-30.6,M,,0000*5A
$GPGSA,A,2,09,27,238,23,21,184,27,30,00,134,35*7B
MC,185648.199,A,3453.7180,N,0863$GPGGA,185649.199,3453.7161,N,08$GPGGA,185650.199,3453.7193,N,08637.0528,W,1,03,3.5,30.6,M,-30.6,185650.199,A,3453.7193,N,08637.0528,W,2.01,295.46,060419,,,A*7F
$GPGGA,185651.199,3453.7180,N,08,M,,0000*58
$GPGSA,A,2,09,27,23
8,23,21,184,28,30,00,134,35*75
$GPGGA,185701.199,3453.7065,N,08637.0264,W,1,03,3.5,30.6,M,-30.6,M,,0000*52
$GPGSA,A,2,09,27,230264,W,0.37,323.82,060419,,,A*7E

,,,,,,,,,,4.7,3.5,3.2*3A
$GPRMC,M,,0000*5E
$GPGSA,A,2,09,27,23
,3,1,12,09,43,217,20,27,32,043,28,23,21,184,28,30,00,134,33*79
,185709.199,A,3453.7049,N,08637.0232,W,1.00,100.85,060419,,,A*7A
$GPGGA,185710.199,3453.7109,N,08

74
$GPGGA,185714.199,3453.7137,N,08637.0518,W,1,03,3.5,30.6,M,-30.6,M,,0000*5C
$GPGSA,A,2,09,27,23,,,,,,,,,,4.7,3.5,3.2*3A
$GPRMC,185714.199,A,3453.7137,N,08637.
637.0402,W,1,03,3.5,30.6,M,-30.6,,,,,,,,,,4.7,3.5,3.2*3A
$GPRMC$GPGGA,185717.199,3453.7093,N,08637.0356,W,1,03,3.5,30.6,M,-30.6,M,,0000*5C
$GPGSA,A,2,09,27,23,,,,,,,,,,4.7,3.5,3.2*3A
$GPRMC
,M,,0000*5E
$GPGSA,A,2,09,27,23,,,,,,,,,,4.7,3.5,3.2*3A
$GPGSV,3,1,12,09,43,217,21,27,32,043,2$GPGSV,3,2,12,13,71,299,,22,66,0,,05,29,300,,03,17,261,*77
$GPR7A
$GPGGA,185719.199,3453.7063,N,08637.0284,W,1,03,3.5,30.6,M,-30.6,M,,0000*53
$GPGSA,A,2,09,27,23,,,,,,,,,,4.8,3.5,3.2*35
$GPRMC,185719.199,A,3453.7063,N,08637.0284,W,1.74,298.03,060419,,,A*71
$GPGGA,185720.199,3453.7076,N,08637.0326,W,1,03,3.5,30.6,M,-30.6,M,,0000*54
$GPGSA,A,2,09,27,23,185721.199,A,3453.7089,N,08637.0357,W,0.60,190.71,060419,,,A*7B
$GPGGA,185722.199,3453.7064,N,08637.0279,W,1,03,3.5,30.6,M,-30.6,M,,0000*5E
$GPGSA,A,2,09,27,23,,,,,,,,,,4.8,3.5,3.2*35
$GPRMC,185722.199,A,3453.7064,N,08637.0279,W,1.62,301.98,060419,,,A*78
,M,,0000*5C
$GPGSA,A,2,09,27,23,,,,,,,,,,4.8,3.5,3.2*35
$GPGSV9,23,21,184,28,30,00,134,32*7B
$GPGSV,3,2,12,13,71,299,,22,66,016,,20,63,337,,21,50,156,*7E
$GPGSV,3,3,12,02,47,306,,32,34,301,,05,29,300,,03,17,261,*77
$GPR,M,,0000*5B
$GPGSA,A,2,09,27,23,,,,,,,,,,4.8,3.5,3.2*35
$GPRMC,185724.199,A,3453.7099,N,08637.$GPGGA,185726.199,3453.7084,N,080313,W,0.64,134.26,060419,,,A*79

16,,20,63,337,,21,50,156,*7E
$G637.0462,W,1,03,3.5,30.6,M,-30.6
$GPGGA,185737.199,3453.7129,N,08637.0332,W,1,03,3.5,30.6,M,-30.60332,W,2.76,120.06,060419,,,A*7A
,M,,0000*5E
$GPGSA,A,2,09,27,237.0331,W,0.99,289.38,060419,,,A*$GPGGA,185739.199,3453.7137,N,08,M,,0000*59
$GPGSA,A,2,09,27,23,,,,,,,,,,4.8,3.6,3.2*36
$GPRMC,185739.199,A,3453.7137,N,08637.0371,W,0.97,116.23,060419,,,A*73
$GPGGA,185740.199,3453.7156,N,08637.0427,W,1,03,3.6,30.6,M,-30.6,M,,0000*54
$GPGSA,A,2,09,27,23,,,,,,,,,,4.8,3.6,3.2*36
$GPRMC,185740.199,A,3453.7156,N,08637.637.0378,W,1,03,3.6,30.6,M,-30.6,M,,0000*50
$GPGSA,A,2,09,27,23,,,,,,,,,,4.8,3.6,3.2*36
$GPRMC,185741.199,A,3453.7138,N,08637.0378,W,1.47,284.85,060419,,,A*72
$GPGGA,185742.199,3453.7118,N,08637.0317,W,1,03,3.6,30.6,M,-30.6,,,,,,,,,,4.8,3.6,3.2*36
$GPRMC,185742.199,A,3453.7118,N,08637.0317,W,1.59,115.23,060419,,,A*72
637.0359,W,1,03,3.6,30.6,M,-30.6,M,,0000*5B
$GPGSA,A,2,09,27,237.0359,W,0.35,309.85,060419,,,A*79
,,,,,,,,,,4.8,3.6,3.2*36
$GPRMC,185746.199,A,3453.7131,N,08637.0402,W,0.52,257.07,060419,,,A*77
$GPGGA,185748.199,3453.7093,N,08
$GPGSV,3,2,12,13,72,304,,22,66,0$GPGGA,185759.199,3453.7083,N,08637.0318,W,1,03,3.6,30.6,M,-30.6,M,,0000*5E
$GPGSA,A,2,09,27,23
$GPGGA,185818.199,3453.7101,N,08637.0337,W,1,03,3.6,30.6,M,-30.6,M,,0000*52
$GPGSA,A,2,09,27,23,,,,,,,,,,4.8,3.6,3.2*36
$GPGSV$GPGSV,3,2,12,13,72,304,,22,66,0PGSV,3,3,12,21,49,156,,32,35,302,,05,30,301,,03,16,260,*74
$GPR7.0337,W,1.60,308.76,060419,,,A*7C
7.0457,W,1.41,115.19,060419,,,A*
,,,,,,,,,,4.8,3.6,3.2*36
$GPRMC0520,W,0.45,352.16,060419,,,A*78

$GPGGA,185849.199,3453.7153,N,08,,,,,,,,,,4.8,3.6,3.2*36
$GPRMC,185849.199,A,3453.7153,N,08637.0475,W,1.43,317.27,060419,,,A*75$GPGGA,185856.199,3453.7105,N,08,M,,0000*57
$GPGSA,A,2,09,27,23,,,,,,,,,,4.8,3.6,3.2*36
$GPRMC0387,W,1.36,108.03,060419,,,A*7A
$GPGGA,,,,4.8,3.6,3.2*36
$GPRMC,185857.199,A,3453.7106,N,08637.0383,W,0.43,171.66,060419,,,A*72
,,,,,,,,,,4.8,3.6,3.2*36
$GPGSV,3,1,12,09,41,216,27,27,31,043,27,23,20,183,30,30,00,133,17*7F
$GPGSV,3,2,12,13,72,304,,22,66,0PGSV,3,3,12,21,49,156,,32,35,302,,05,30,301,,03,16,260,*74
$GPR7.0401,W,0.53,78.68,060419,,,A*41
0397,W,0.29,269.11,060419,,,A*70$GPGGA,185913.199,3453.7139,N,08,M,,0000*5E
$GPGSA,A,2,09,27,23
$GPGGA,185917.199,3453.7147,N,080464,W,2.27,107.54,060419,,,A*7C
$GPGGA,185918.199,3453.7156,N,08
,,,,,,,,,,4.8,3.6,3.2*36
$GPRMC0213,W,3.39,132.36,060419,,,A*70
,185935.199,A,3453.7129,N,08637.0421,W,0.65,298.44,060419,,,A*75
637.0509,W,1,03,3.6,30.6,M,-30.60363,W,1.46,275.38,060419,,,A*76

,,,,,,,,,,4.8,3.6,3.2*36
$GPRMC,,,,,,,,,,4.8,3.6,3.2*36
$GPGSV$GPGGA,185959.203,3453.7082,N,08,M,,0000*59
$GPGSA,A,2,09,27,23,,,,,,,,,,4.8,3.6,3.2*36
$GPRMC,185959.203,A,3453.7082,N,08637.
$GPGGA,190002.203,3453.7061,N,08637.0343,W,1,03,3.6,30.6,M,-30.6,M,,0000*51
$GPGSA,A,2,09,27,23,,,,,,,,,,4.8,3.6,3.2*36
$GPRMC0343,W,0.69,249.40,060419,,,A*76
,190006.203,A,3453.7062,N,08637.0382,W,1.11,252.17,060419,,,A*7A



0459,W,0.97,102.79,060419,,,A*71
637.0454,W,1,03,3.6,30.6,M,-30.6637.0433,W,1,03,3.6,30.6,M,-30.6,M,,0000*56
$GPGSA,A,2,09,27,23,,,,,,,,,,4.8,3.6,3.2*36
$GPGSV$GPGSV,3,2,12,13,72,304,,22,66,019,,20,63,340,,02,49,305,*7A
$GPGSV,3,3,12,21,49,156,,32,35,302MC,190018.204,A,3453.7095,N,08637.0433,W,0.65,157.08,060419,,,A*$GPGGA,190019.203,3453.7094,N,08637.0427,W,1,03,3.6,30.6,M,-30.6,M,,0000*54
$GPGSA,A,2,09,27,23,190019.203,A,3453.7094,N,08637.0427,W,2.34,137.33,060419,,,A*77
$GPGGA,190020.199,3453.7058,N,08637.0337,W,1,03,3.6,30.6,M,-30.6,M,,0000*58
$GPGSA,A,2,09,27,23,,,,,,,,,,4.8,3.6,3.2*36
$GPRMC,190020.199,A,3453.7058,N,08637.0337,W,2.21,294.83,060419,,,A*7E
$GPGGA,190021.199,3453.7069,N,08637.0298,W,1,03,3.6,30.6,M,-30.6,190021.199,A,3453.7069,N,08637.0298,W,1.69,118.10,060419,,,A*7B
,M,,0000*55
$GPGSA,A,2,09,27,23,,,,,,,,,,4.8,3.6,3.2*36
$GPRMC,190022.204,A,3453.7070,N,08637.0324,W,1.60,94.71,060419,,,A*4A
$GPGGA,190023.199,3453.7066,N,08637.0360,W,1,03,3.6,30.6,M,-30.6,M,,0000*54
$GPGSA,A,2,09,27,235,23,20,183,29,30,00,133,32*72
MC,190023.199,A,3453.7066,N,08637.0360,W,0.32,94.28,060419,,,A*41
$GPGGA,190026.204,3453.7067,N,08637.0359,W,1,03,3.6,30.6,M,-30.6,M,,0000*5D
$GPGSA,A,2,09,27,23,,,,,,,,,,4.8,3.6,3.2*36
$GPRMC,190026.204,A,3453.7067,N,08637.0359,W,0.68,16.15,060419,,,A*43
,M,,0000*57
$GPGSA,A,2,09,27,23,,,,,,,,,,4.8,3.6,3.2*36
$GPRMC,190027.203,A,3453.7071,N,08637.0361,W,2.64,95.31,060419,,,A*4A
$GPGGA,190028.203,3453.7081,N,08637.0345,W,1,03,3.6,30.6,M,-30.6,M,,0000*51
$GPGSA,A,2,09,27,23,,,,,,,,,,4.8,3.6,3.2*36
$GPGSV,3,1,12,09,41,216,27,27,31,043,2$GPGGA,190030.204,3453.7127,N,08,190032.203,A,3453.7096,N,08637.0429,W,1.16,10.99,060419,,,A*45MC,190033.203,A,3453.7057,N,08637.0360,W,0.90,259.43,060419,,,A*74
$GPGGA,190035.204,3453.7102,N,08637.0445,W,1,03,3.6,30.6,M,-30.6,M,,0000*57
$GPGSA,A,2,09,27,23,,,,,,,,,,4.8,3.6,3.2*36
$GPRMC,190035.204,A,3453.7102,N,08637.0445,W,1.34,104.85,060419,,,A*7A
$GPGGA,190036.204,3453.7096,N,08,,,,,,,,,,4.8,3.6,3.2*36
$GPRMC,190036.204,A,3453.7096,N,08637.0379,W,1.31,301.59,060419,,,A*7E
$GPGGA,190037.203,3453.7094,N,08637.0358,W,1,03,3.6,30.6,M,-30.6,M,,0000*57
$GPGSA,A,2,09,27,23,,,,,,,,,,4.8,3.6,3.2*36
$GPRMC,190037.203,A,3453.7094,N,08637.0358,W,1.43,253.30,060419,,,A*75
$GPGGA,190038.204,3453.7100,N,08,,,,,,,,,,4.8,3.6,3.2*36
$GPGSV$GPGSV,3,2,12,13,72,304,,22,66,019,,20,63,340,,02,49,305,*7A
$GPGSV,3,3,12,21,49,156,,32,35,3027.0323,W,1.00,72.83,060419,,,A*43
$GPGGA,190040.204,3453.7089,N,08637.0431,W,1,03,3.6,30.6,M,-30.6,M,,0000*54
$GPGSA,A,2,09,27,23,,,,,,,,,,4.8,3.6,3.2*36
$GPRMC,190040.204,A,3453.7089,N,08637.0431,W,1.19,129.38,060419,,,A*7F
$GPGGA,190041.203,3453.7087,N,08,,,,,,,,,,4.8,3.6,3.2*36
$GPRMC,190041.203,A,3453.7087,N,08637.0397,W,1.13,97.72,060419,,,A*4C
$GPGGA,190042.204,3453.7081,N,08637.0356,W,1,03,3.6,30.6,M,-30.6,M,,0000*58
$GPGSA,A,2,09,27,23,,,,,,,,,,4.8,3.6,3.2*36
$GPRMC
637.0369,W,1,03,3.6,30.6,M,-30.6,,,,,,,,,,4.8,3.6,3.2*36
$GPGSV,3,1,12,09,41,216,27,27,31,043,25,23,20,183,28,30,00,133,33*72
19,,20,63,340,,02,49,305,*7A
$GMC,190043.204,A,3453.7075,N,086377
,M,,0000*5A
$GPGSA,A,2,09,27,230393,W,0.76,273.20,060419,,,A*7C
$GPGGA,190045.203,3453.7059,N,08637.0344,W,1,03,3.6,30.6,M,-30.6,M,,0000*5E
$GPGSA,A,2,09,27,23,,,,,,,,,,4.8,3.6,3.2*36
$GPRMC0344,W,1.33,74.07,060419,,,A*48
$GPGGA,190046.204,3453.7071,N,08637.0336,W,1,03,3.6,30.6,M,-30.6,190046.204,A,3453.7071,N,08637.0336,W,0.09,127.74,060419,,,A*78

637.0301,W,1,03,3.6,30.6,M,-30.6$GPGSV,3,2,12,13,72,309,,22,66,0



637.0081,W,1,03,3.6,30.6,M,-30.6,190256.203,A,3453.6985,N,08637.0081,W,6.70,287.23,060419,,,A*73

$GPGGA,190305.203,3453.7068,N,08,,,,,,,,,,4.8,3.6,3.2*36
$GPRMC,190305.203,A,3453.7068,N,08637.
637.0269,W,1,03,3.6,30.6,M,-30.6,M,,0000*58
$GPGSA,A,2,09,27,23,190306.203,A,3453.7066,N,08637.0269,W,3.28,120.75,060419,,,A*73
$GPGGA,190307.203,3453.7049,N,08,M,,0000*5C
$GPGSA,A,2,09,27,23,,,,,,,,,,4.8,3.6,3.2*36
$GPRMC,190307.203,A,3453.7049,N,08637.
$GPGSV,3,2,12,13,72,309,,22,66,07
$GPGGA,190309.203,3453.7029,N,080190,W,1.12,137.95,060419,,,A*71,,,,,,,,,,4.8,3.6,3.2*36
$GPRMC0406,W,0.68,295.35,060419,,,A*7D
A*7D
,M,,0000*52
$GPGSA,A,2,09,27,23,,,,,,,,,,4.8,3.6,3.2*36
$GPRMC,190325.203,A,3453.7217,N,08637.

,M,,0000*52
$GPGSA,A,2,09,27,23,,,,,,,,,,4.8,3.6,3.2*36
$GPRMC,190330.203,A,3453.7152,N,08637.
637.0410,W,1,03,3.6,30.6,M,-30.6,M,,0000*55
$GPGSA,A,2,09,27,23,,,,,,,,,,4.8,3.6,3.2*36
$GPRMC,190331.203,A,3453.7133,N,08637.
$GPGGA,190332.203,3453.7098,N,08637.0340,W,1,03,3.6,30.6,M,-30.6,M,,0000*54
$GPGSA,A,2,09,27,23,,,,,,,,,,4.8,3.6,3.2*36
$GPRMC,190332.203,A,3453.7098,N,08637.0340,W,2.21,102.52,060419,,,A*72
PRMC,190333.203,A,3453.7118,N,08$GPGGA,190341.203,3453.7111,N,08,,,,,,,,,,4.8,3.6,3.2*36
$GPRMC,190341.203,A,3453.7111,N,08637.0392,W,2.93,287.21,060419,,,A*7A
,190347.203,A,3453.7115,N,08637.
$GPGGA,190348.203,3453.7092,N,08637.0372,W,1,03,3.6,30.6,M,-30.6,M,,0000*52
$GPGSA,A,2,09,27,23,3,1,12,09,40,215,22,27,30,043,30,23,19,183,28,07,00,000,38*74
A*78
637.0467,W,1,03,3.7,30.6,M,-30.6,,,,,,,,,,4.8,3.7,3.2*37
$GPRMC,190351.203,A,3453.7141,N,08637.
637.0493,W,1,03,3.7,30.6,M,-30.6,M,,0000*5C
$GPGSA,A,2,09,27,23,190352.203,A,3453.7142,N,08637.


$GPGGA,190356.203,3453.7074,N,08637.0334,W,1,03,3.7,30.6,M,-30.6,M,,0000*56
$GPGSA,A,2,09,27,23,,,,,,,,,,4.8,3.7,3.2*37
$GPRMC,190356.203,A,3453.7074,N,08637.0334,W,3.68,110.91,060419,,,A*71
,M,,0000*53
$GPGSA,A,2,09,27,23,190357.203,A,3453.7089,N,08637.0389,W,1.66,106.25,060419,,,A*70
$GPGGA,190358.203,3453.7076,N,08637.0348,W,1,03,3.7,30.6,M,-30.6,M,,0000*51
$GPGSA,A,2,09,27,23,,,,,,,,,,4.8,3.7,3.2*37
$GPGSV,3,1,12,09,39,213,23,27,29,042,30,23,18,182,28,07,00,000,38*74
$GPGSV,3,2,12,30,02,131,34,13,72,314,,22,66,026,,20,65,346,*7B
$GPGSV,3,3,12,02,51,302,,21,46,157,,32,37,304,,05,32,303,*79
$GPRMC,190358.203,A,3453.7076,N,08637.0348,W,3.45,300.21,060419,,,A*71
$GPGGA,190359.203,3453.7097,N,08637.0398,W,1,03,3.7,30.6,M,-30.6,M,,0000*52
$GPGSA,A,2,09,27,23,,,,,,,,,,4.8,3.7,3.2*37
$GPRMC,190359.203,A,3453.7097,N,08637.0398,W,2.99,116.43,060419,,,A*73
$GPGGA,190400.203,3453.7080,N,08637.0378,W,1,03,3.7,30.6,M,-30.6
$GPGGA,190403.203,3453.7064,N,08A*7B
0,23,18,182,28,07,00,000,38*73
$GPGGA,190411.203,3453.7084,N,08637.0407,W,1,03,3.7,30.6,M,-30.6,M,,0000*5A
$GPGSA,A,2,09,27,23,190411.203,A,3453.7084,N,08637.0407,W,2.71,104.15,060419,,,A*7D
637.0361,W,1,03,3.7,30.6,M,-30.6,M,,0000*5D
$GPGSA,A,2,09,27,23,,,,,,,,,,4.8,3.7,3.2*37
$GPRMC0361,W,0.93,288.10,060419,,,A*76
$GPGGA,190413.203,3453.7084,N,0857,,32,37,304,,05,32,303,*79
$G,,,,,,,,,,4.8,3.7,3.2*37
$GPRMC
,,,,,,,,,,4.8,3.7,3.2*37
$GPRMC
637.0295,W,1,03,3.7,30.6,M,-30.6637.0288,W,1,03,3.7,30.6,M,-30.6


77

,,,,,,,,,,4.8,3.7,3.2*37
$GPRMC,190500.203,A,3453.7132,N,08637.0488,W,1.15,296.20,060419,,,A*78
$GPGGA,190503.203,3453.7117,N,089,23,18,182,28,30,02,131,29*7C
,190504.203,A,3453.7148,N,08637.0521,W,2.07,288.15,060419,,,A*7A
$GPGGA,190505.203,3453.7140,N,08,190505.203,A,3453.7140,N,08637.$GPGGA,190506.203,3453.7088,N,08,M,,0000*57
$GPGSA,A,2,09,27,23,,,,,,,,,,4.8,3.7,3.2*37
$GPRMC
$GPGGA,190507.203,3453.7085,N,08637.0361,W,1,03,3.7,30.6,M,-30.6,M,,0000*5A
$GPGSA,A,2,09,27,23,,,,,,,,,,4.8,3.7,3.2*37
$GPRMC,190507.203,A,3453.7085,N,08637.0361,W,1.36,264.34,060419,,,A*7B
$GPGGA,190508.203,3453.7119,N,08637.0451,W,1,03,3.7,30.6,M,-30.6,M,,0000*55
$GPGSA,A,2,09,27,23,,,,,,,,,,4.8,3.7,3.2*37
$GPGSV,3,1,12,09,39,213,27,27,29,042,29,23,18,182,28,30,02,131,28*7C
$GPGSV,3,2,12,13,72,314,,22,66,026,,20,65,346,,02,51,302,*79
$GPGSV,3,3,12,21,46,157,,32,37,304,,05,32,303,,18,18,292,*77
$GPRMC,190508.203,A,3453.7119,N,08637.0451,W,3.08,123.25,060419,,,A*7B
$GPGGA,190509.203,3453.7119,N,08637.0449,W,1,03,3.7,30.6,M,-30.6,,,,,,,,,,4.8,3.7,3.2*37
$GPRMC,190509.203,A,3453.7119,N,08637.0449,W,1.38,306.46,060419,,,A*72
637.0413,W,1,03,3.7,30.6,M,-30.6,M,,0000*52
$GPGSA,A,2,09,27,23,,,,,,,,,,4.8,3.7,3.2*37
$GPRMC$GPGGA,190511.203,3453.7153,N,08637.0487,W,1,03,3.7,30.6,M,-30.6,190511.203,A,3453.7153,N,08637.0487,W,0.34,37.28,060419,,,A*43
$GPGGA,190512.203,3453.7151,N,08637.0441,W,1,03,3.7,30.6,M,-30.6
637.0472,W,1,03,3.7,30.6,M,-30.6
$GPGGA,190517.203,3453.7094,N,08637.0392,W,1,03,3.7,30.6,M,-30.6,M,,0000*57
$GPGSA,A,2,09,27,23,,,,,,,,,,4.8,3.7,3.2*37
$GPRMC,190517.203,A,3453.7094,N,08637.0392,W,0.65,280.96,060419,,,A*73
0357,W,0.45,209.95,060419,,,A*7D
637.0399,W,1,03,3.7,30.6,M,-30.6,M,,0000*55
$GPGSA,A,2,09,27,23,,,,,,,,,,4.8,3.7,3.2*37
$GPRMC,190520.203,A,3453.7110,N,08637.,M,,0000*5F
$GPGSA,A,2,09,27,23
,M,,0000*5E
$GPGSA,A,2,09,27,23$GPGGA,190525.203,3453.7120,N,08637.0413,W,1,03,3.7,30.6,M,-30.6
$GPGGA,190530.203,3453.7113,N,08637.0365,W,1,03,3.7,30.6,M,-30.6,M,,0000*54
$GPGSA,A,2,09,27,23,,,,,,,,,,4.8,3.7,3.2*37
$GPRMC,190530.203,A,3453.7113,N,08637.0365,W,37.22,99.23,060419,,,A*73
$GPGGA,190531.203,,,,,0,00,,,M,0.0,M,,0000*58
$GPGSA,A,1,,,,,,,$GPGGA,190532.203,,,,,0,00,,,M,0,,,,,,,,*1E
$GPRMC,190532.203,V,,,,,,,060419,,,N*4A
,30,02,131,27,13,72,314,,22,66,026,,20,65,346,*79
$GPGSV,3,3,12,02,51,302,,21,46,157,,32,37,30403,V,,,,,,,060419,,,N*4B
$GPGGA,190534.203,,,,,0,00,,,M,0.0,M,,0000*5D
$GPGSA,A,1,,,,,,,,,,,,,,,*1E
$GPRMC,190534.203,V,,,,,,,060419,,,N*4C
$GPGGA,190535.203,,,,,0,00,,,M,0.0,M,,0000*5C
$GPGSA,A,1,,,,,,,,,,,,,,,*1E
$GPRMC,190535.203,V,,,,,,,060419,,,N*4D
,,,,,,,,*1E
$GPRMC,190536.203,V,,,,,,,060419,,,N*4E
$GPGGA,190537.203,,,,,0,00,,,M,0,,,,,,,060419,,,N*4F
$GPGGA,190538.203,,,,,0,00,,,M,0.0,M,,0000*51
$GPGSA,A,1,,,,,,,,,,,,,,,*1E
$GPGSV,3,1,12,09,39,213,04,23,18,182,04,27,29,042,04,30,02,131,27*73
$GPGSV,3,2,12,13,72,314,,22,66,026,,20,65,346,,02,51,302,*79
$GPGSV,3,3,12,21,46,157,,32,37,304,,05,32,303,,18,18,292,*77
$GPRMC,190538.203,V,,,,,,,060419,,,N*40
$GPGGA,190539.203,,,,,0,00,,,M,0.0,M,,0000*50
$GPGSA,A,1,,,,,,,,,,,,,,,*1E
$GPRMC,190539.203,V,,,,,,,060419,,,N*41
$GPGGA,190540.203,,,,,0,00,,,M,0.0,M,,0000*5E
$GPGSA,A,1,,,,,,,,,,,,,,,*1E
$GPRMC,190540.203,V,,,,,,,060419,,,N*4F
$GPGGA,190541.203,,,,,0,00,,,M,0.0,M,,0000*5F
$GPGSA,A,1,,,,,,,,,,,,,,,*1E
$GPRMC,190541.203,V,,,,,,,060419,,,N*4E
$GPGGA,190542.203,,,,,0,00,,,M,0.0,M,,0000*5C
$GPGSA,A,1,,,,,,,,,,,,,,,*1E
$GPRMC,190542.203,V,,,,,,,060419,,,N*4D
$GPGGA,190543.203,,,,,0,00,,,M,0.0,M,,0000*5D
$GPGSA,A,1,,,,,,,,,,,,,,,*1E
$GPGSV,3,1,12,09,39,213,04,27,29,042,04,30,02,131,26,13,72,314,*74
$GPGSV,3,2,12,22,66,026,,20,65,346,,02,51,302,,21,46,157,*7A
$GPGSV,3,3,12,32,37,304,,05,32,303,,18,18,292,,23,18,182,*76
$GPRMC,190543.203,V,,,,,,,060419,,,N*4C
$GPGGA,190544.203,,,,,0,00,,,M,0.0,M,,0000*5A
$GPGSA,A,1,,,,,,,,,,,,,,,*1E
$GPRMC,190544.203,V,,,,,,,060419,,,N*4B
$GPGGA,190545.203,,,,,0,00,,,M,0.0,M,,0000*5B
$GPGSA,A,1,,,,,,,,,,,,,,,*1E
$GPRMC,190545.203,V,,,,,,,060419,,,N*4A
,,,,,,,,*1E
$GPRMC,190546.203,V,,,,,,,060419,,,N*49
$GPGGA,190547.203,,,,,0,00,,,M,0.0,M,,0000*59
$GPGSA,A,1,,,,,,,,,,,,,,,*1E
$GPRMC,190547.203,V,,,,,,,060419,,,N*48
$GPGGA,190548.203,,,,,0,00,,,M,0.0,M,,0000*56
$GPGSA,A,1,,,,,,,,,,,,,,,*1E
$GPGSV,3,1,12,09,39,213,04,27,29,042,04,30,02,131,28,13,72,314,*7A
$GPGSV,3,2,12,22,66,026,,20,65,346,,02,51,302,,21,46,157,*7A
$GPGSV,3,3,12,32,37,304,,05,32,303,,18,18,292,,23,18,182,*76
$GPRMC,190548.203,V,,,,,,,060419,,,N*47
$GPGGA,190549.202,,,,,0,00,,,M,0.0,M,,0000*56
$GPGSA,A,1,,,,,,,$GPGGA,190550.202,,,,,0,00,,,M,0.0,M,,0000*5E
$GPGSA,A,1,,,,,,,,,,,,,,,*1E
$GPRMC,190550.202,V,,,,,,,060419,,,N*4F
$GPGGA,190551.202,,,,,0,00,,,M,0.0,M,,0000*5F
$GPGSA,A,1,,,,,,,$GPGGA,190552.202,,,,,0,00,,,M,0,,,,,,,060419,,,N*4D
$GPGGA,190553.202,,,,,0,00,,,M,0.0,M,,0000*5D
$GPGSA,A,1,,,,,,,,,,,,,,,*1E
$GPGSV,3,1,12,09,39,213,04,27,29,042,11,30,02,131,34,13,72,314,*73
$GPGSV,3,2,12,22,66,026,,20,65,346,,02,51,302,,21,46,157,*7A
$GPGSV,3,3,12,32,37,304,,05,32,303,,18,18,292,,23,18,182,*76
$GPRMC,190553.202,V,,,,,,,060419,,,N*4C
$GPGGA,190554.202,,,,,0,00,,,M,0.0,M,,0000*5A
$GPGSA,A,1,,,,,,,,,,,,,,,*1E
$GPRMC,190554.202,V,,,,,,,060419,,,N*4B
$GPGGA,190555.202,,,,,0,00,,,M,0.0,M,,0000*5B
$GPGSA,A,1,,,,,,,,,,,,,,,*1E
$GPRMC,190555.202,V,,,,,,,060419,,,N*4A
$GPGGA,190556.202,,,,,0,00,,,M,0.0,M,,0000*58
$GPGSA,A,1,,,,,,,,,,,,,,,*1E
$GPRMC,190556.202,V,,,,,,,060419,,,N*49
$GPGGA,190558.203,,,,,0,00,,,M,0.0,M,,0000*57
$GPGSA,A,1,,,,,,,,,,,,,,,*1E
$GPGSV,3,1,12,09,39,213,04,16,01,109,28,27,29,042,04,30,02,131,30*76
$GPGSV,3,2,12$GPGGA,190559.203,,,,,0,00,,,M,0.0,M,,0000*56
$GPGSA,A,1,,,,,,,,,,,,,,,*1E
$GPRMC,190559.203,V,,,,,,,060419,,,N*47
$GPGGA,190600.203,,,,,0,00,,,M,0.0,M,,0000*59
$GPGSA,A,1,,,,,,,,,,,,,,060419,,,N*48
$GPGGA,190602.203,,,,,0,00,,,M,0.0,M,,0000*5B
$GPGSA,A,1,,,,,,,,,,,,,,,*1E
$GPRMC,190602.203,V,,,,,,,060419,,,N*4A
$GPGGA,190603.203,,,,,0,00,,,M,0.0,M,,0000*5A
$GPGSA,A,1,,,,,,,,,,,,,,,*1E
$GPGSV,3,1,12,16,01,109,28,30,02,131,31,13,72,314,,22,66,026,*79
$GPGSV,3,2,12,20,65,346,,02,51,302,,21,46,157,,09,39,213,*7D
$GPGSV,3,3,12,32,37,304,,05,32,303,,27,29,042,,18,18,292,*7D
$GPRMC,190603.203,V,,,,,,,060419,,,N*4B
$GPGGA,190604.203,,,,,0,00,,,M,0.0,M,,0000*5D
$GPGSA,A,1,,,,,,,,,,,,,,,*1E
$GPRMC,190604.203,V,,,,,,,060419,,,N*4C
$GPGGA,190605.203,,,,,0,00,,,M,0.0,M,,0000*5C
$GPGSA,A,1,,,,,,,,,,,,,,,*1E
$GPRMC,190605.203,V,,,,,,,060419,,,N*4D
$GPGGA,190606.203,,,,,0,00,,,M,0.0,M,,0000*5F
$GPGSA,A,1,,,,,,,,,,,,,,,*1E
$GPRMC,190606.203,V,,,,,,,060419,,,N*4E
$GPGGA,190607.203,,,,,0,00,,,M,0.0,M,,0000*5E
$GPGSA,A,1,,,,,,,,,,,,,,,*1E
$GPRMC,190607.203,V,,,,,,,060419,,,N*4F
$GPGGA,190608.203,,,,,0,00,,,M,0.0,M,,0000*51
$GPGSA,A,1,,,,,,,,,,,,,,,*1E
$GPGSV,3,1,12,16,01,109,27,30,02,131,35,13,72,314,,22,66,026,*72
$GPGSV,3,2,12,20,65,346,,02,51,302,,21,46,157,,09,39,213,*7D
$GPGSV,3,3,12,32,37,304,,05,32,303,,27,29,042,,18,18,292,*7D
$GPRMC,190608.203,V,,,,,,,,,060419,,,N*41
$GPGGA,190610.203,,,,,0,00,,,M,0.0,M,,0000*58
$GPGSA,A,1,,,,,,,,,,,,,,,*1E
$GPRMC,190610.203,V,,,,,,,060419,,,N*49
$GPGGA,190611.208,,,,,0,00,,,M,0.0,M,,0000*52
$GPGSA,A,1,,,,,,,,,,,,,,,*1E
$GPRMC,190611.208,V,,,,,,,060419,,,N*43
$GPGGA,190612.207,,,,,0,00,,,M,0.0,M,,0000*5E
$GPGSA,A,1,,,,,,,,,,,,,,,*1E
$GPRMC,190612.207,V,,,,,,,060419,,,N*4F
$GPGGA,190613.207,,,,,0,00,,,M,0.0,M,,0000*5F
$GPGSA,A,1,,,,,,,2,66,026,,20,65,346,,02,51,302,,21,46,157,*7A
$GPGSV,3,3,12,09,39,213,,32,37,304,,05,32,303,,27,29,042,*77
$GPRMC,190613.207,V,,,,,,,060419,,,N*4E
$GPGGA,190614.203,,,,,0,00,,,M,0.0,M,,0000*5C
$GPGSA,A,1,,,,,,,,,,,,,,,*1E
$GPRMC,190614.203,V,,,,,,,060419,,,N*4D
$GPGGA,190615.203,,,,,0,00,,,M,0.0,M,,0000*5D
$GPGSA,A,1,,,,,,,,,,,,,,,*1E
$GPRMC,190615.203,V,,,,,,,060419,,,N*4C
$GPGGA,190616.202,,,,,0,00,,,M,0.0,M,,0000*5F
$GPGSA,A,1,,,,,,,,,,,,,,,*1E
$GPRMC,190616.202,V,,,,,,,060419,,,N*4E
.0,M,,0000*5F
$GPGSA,A,1,,,,,,,,,,,,,,,*1E
$GPRMC,190617.203,V,,,,,,,060419,,,N*4E
$GPGGA,19,20,65,346,,02,51,302,,21,46,157,*7A
$GPGSV,3,3,12,09,39,213,,32,37,304,,05,32,303,,27,29,042,*77
$GPRMC,190618.203,V,,,,,,,060419,,,N*41
$GPGGA,190620.203,,,,,0,00,,,M,0.0,M,,0000*5B
$GPGSA,A,1,,,,,,,,,,,,,,,*1E
$GPRMC,190620.203,V,,,,,,,060419,,,N*4A
$GPGGA,190621.208,,,,,0,00,,,M,0.0,M,,0000*51
$GPGSA,A,1,,,,,,,,,,,,,,,*1E
$GPRMC,190621.208,V,,,,,,,060419,,,N*40
,,,,,,,,*1E
$GPRMC,190622.208,V,,,,,,,060419,,,N*43
.0,M,,0000*53
$GPGSA,A,1,,,,,,,,109,27,18,18,292,30,30,02,131,2,,,,,,,,*1E
$GPRMC,190624.208,V,,,,,,,060419,,,N*45
$GPGGA,190625.208,,,,,0,00,,,M,0.0,M,,0000*55
$GPGSA,A,1,,,,,,,,,,,,,,,*1E
$GPRMC,190625.208,V$GPGGA,190626.208,,,,,0,00,,,M,0.0,M,,0000*56
$GPGSA,A,1,,,,,,,,,,,,,,,*1E
$GPRMC,190626.208,V,,,,,,,060419,,,N*47
$GPGGA,190627.208,,,,,0,00,,,M,0.0,M,,0000*57
$GPGSA,A,1,,,,,,,,,,,,,,,*1E
$GPRMC,190627.208,V,,,,,,,060419,,,N*46
$GPGGA,190628.203,,,,,0,00,,,M,0.0,M,,0000*53
$GPGSA,A,1,,,,,,,,,,,,,,,*1E
$GPGSV,3,1,12,16,01,109,27,18,18,292,29,30,02,131,27,13,72,314,*77
$GPGSV,3,2,12,22,66,026,,20,65,346,,02,51,302,,21,46,157,*7A
$GPGSV,3,3,12,09,39,213,,32,37,304,,05,32,303,,27$GPGGA,190629.203,,,,,0,00,,,M,0.0,M,,0000*52
$GPGSA,A,1,,,,,,,,,,,,,,,*1E
$GPRMC,190629.203,V,,,,,,,060419,,,N*43
$GPGGA,190630.203,,,,,0,00,,,M,0.0,M,,0000*5A
$GPGSA,A,1,,,,,,,,,,,,,,,*1E
$GPRMC,190630.203,V,,,,,,,060419,,,N*4B
$GPGGA,190631.203,,,,,0,00,,,M,0.0,M,,0000*5B
$GPGSA,A,1,,,,,,,,,,,,,,,*1E
$GPRMC,190631.203,V,,,,,,,060419,,,N*4A
,,,,,,,,*1E
$GPRMC,190632.203,V,,,,,,,060419,,,N*49
$GPGGA,190633.203,,,,,0,00,,,M,0.0,M,,0000*59
$GPGSA,A,1,,,,,,,,,,,,,,,*1E
$GPGSV,3,1,12,16,01,109,26,18,18,292,28,30,02,131,29,13,72,314,*79
$GPGSV,3,2,12,22,66,026,,20,65,346,,02,51,302,,21,46,157,*7A
$GPGSV,3,3,12,09,39,213,,32,37,304,,05,32,303,,27,29,042,*77
$GPRMC,190633.203,V,,,,,,,060419,,,N*48
$GPGGA,190634.203,,,,,0,00,,,M,0.0,M,,0000*5E
$GPGSA,A,1,,,,,,,,,,,,,,,*1E
$GPRMC,190634.203,V,,,,,,,060419,,,N*4F
,,,,,,,060419,,,N*4A
$GPGGA,190637.208,,,,,0,00,,,M,0.0,M,,0000*56
$GPGSA,A,1,,,,,,,2,66,026,,20,65,346,,02,51,302,,21,46,157,*7A
$GPGSV,3,3,12,09,39,213,,32,37,304,,05,32,303,,27,29,042,*77
$GPRMC,190638.208,V,,,,,,,060419,,,N*48
$GPGGA,190640.203,,,,,0,00,,,M,0.0,M,,0000*5D
$GPGSA,A,1,,,,,,,,,,,,,,,*1E
$GPRMC,190640.203,V,,,,,,,060419,,,N*4C
$GPGGA,190641.208,,,,,0,00,,,M,0.0,M,,0000*57
$GPGSA,A,1,,,,,,,,,,,,,,,*1E
$GPRMC,190641.208,V,,,,,,,060419,,,N*46
$GPGGA,190642.203,,,,,0,00,,,M,0.0,M,,0000*5F
$GPGSA,A,1,,,,,,,,,,,,,,,*1E
$GPRMC,190642.203,V,,,,,,,060419,,,N*4E
$GPGGA,190643.203,,,,,0,00,,,M,0.0,M,,0000*5E
$GPGSA,A,1,,,,,,,,,,,,,,,*1E
$GPGSV,3,1,12,16,01,109,26,18,18,292,26,30,02,131,32,13,72,314,*7D
$GPGSV,3,2,12,22,66,026,,20,65,346,,02,51,302,,21,46,157,*7A
$GPGSV,3,3,12,09,39,213,,32,37,304,,05,32,303,,27,29,042,*77
$GPRMC,190643.203,V,,,,,,,060419,,,N*4F
$GPGGA,190644.203,,,,,0,00,,,M,0.0,M,,0000*59
$GPGSA,A,1,,,,,,,,,,,,,,,*1E
$GPRMC,190644.203,V,,,,,,,060419,,,N*48
$GPGGA,190645.203,,,,,0,00,,,M,0.0,M,,0000*58
$GPGSA,A,1,,,,,,,,,,,,,,,*1E
$GPRMC,190645.203,V,,,,,,,060419,,,N*49
$GPGGA,190646.208,,,,,0,00,,,M,0.0,M,,0000*50
$GPGSA,A,1,,,,,,,,,,,,,,,*1E
$GPRMC,190646.208,V,,,,,,,060419,,,N*41
$GPGGA,190647.208,,,,,0,00,,,M,0.0,M,,0000*51
$GPGSA,A,1,,,,,,,,,,,,,,,*1E
$GPRMC,190647.208,V,,,,,,,060419,,,N*40
$GPGGA,190648.203,,,,,0,00,,,M,0.0,M,,0000*55
$GPGSA,A,1,,,,,,,,,,,,,,,*1E
$GPGSV,3,1,12,16,01,109,29,18,18,292,29,30,02,131,32,13,72,314,*7D
$GPGSV,3,2,12,22,66,026,,20,65,346,,02,51,302,,21,46,157,*7A
$GPGSV,3,3,12,09,39,213,,32,37,304,,05,32,303,,27,29,042,*77
$GPRMC,190648.203,V,,,,,,,060419,,,N*44
$GPGGA,190649.203,,,,,0,00,,,M,0.0,M,,0000*54
$GPGSA,A,1,,,,,,,,,,,,,,,*1E
$GPRMC,190649.203,V,,,,,,,060419,,,N*45
$GPGGA,190650.203,,,,,0,00,,,M,0.0,M,,0000*5C
$GPGSA,A,1,,,,,,,,,,,,,,060419,,,N*4D
$GPGGA,190651.208,,,,,0,00,,,M,0.0,M,,0000*56
$GPGSA,A,1,,,,,,,,,,,,,,,*1E
$GPRMC,190651.208,V,,,,,,,060419,,,N*47
$GPGGA,190652.203,,,,,0,00,,,M,0.0,M,,0000*5E
$GPGSA,A,1,,,,,,,,,,,,,,,*1E
$GPRMC,190652.203,V,,,,,,,060419,,,N*4F
$GPGGA,190653.203,,,,,0,00,,,M,0.0,M,,0000*5F
$GPGSA,A,1,,,,,,,,,,,,,,,*1E
$GPGSV,3,1,12,16,47,102,25,18,00,000,28,27,16,021,29,30,53,143,29*79
$GPGSV,3,2,12,21,62,266,,23,34,229,,10,31,1039,22,266,,13,18,323,,29,17,167,,17,17,203,*74
$GPRMC,190653.203,V,,,,,,,060419,,,N*4E
$GPGGA,190654.203,,,,,0,00,,,M,0.0,M,,0000*58
$GPGSA,A,1,,,,,,,,,,,,,,,*1E
$GPRMC,190654.203,V,,,,,,,060419,,,N*49
$GPGGA,190655.203,,,,,0,00,,,M,0.0,M,,0000*59
$GPGSA,A,1,,,,,,,,,,,,,,,*1E
$GPRMC,190655.203,V,,,,,,,060419,,,N*48
$GPGGA,190656.203,,,,,0,00,,,M,0.0,M,,0000*5A
$GPGSA,A,1,,,,,,,,,,,,,,,*1E
$GPRMC,190656.203,V,,,,,,,060419,,,N*4B
$GPGGA,190657.203,,,,,0,00,,,M,0.0,M,,0000*5B
$GPGSA,A,1,,,,,,,,,,,,,,,*1E
$GPRMC,190657.203,V,,,,,,,060419,,,N*4A
$GPGGA,190658.203,,,,,0,00,,,M,0.0,M,,0000*54
$GPGSA,A,1,,,,,,,,,,,,,,,*1E
$GPGSV,3,1,12,16,47,102,29,18,00,000,29,23,34,229,14,27,16,021,27*78
$GPGSV,3,2,12,30,53,143,31,21,62,266,,10,31,103,,22,27,343,*7F
$GPGSV,3,3,12,09,22,266,,13,18,323,,29,17,167,,17,17,203,*74
$GPRMC,190658.203,V,,,,,,,060419,,,N*45
$GPGGA,190659.203,,,,,0,00,,,M,0.0,M,,0000*55
$GPGSA,A,1,,,,,,,,,,,,,,,*1E
$GPRMC,190659.203,V,,,,,,,060419,,,N*44
$GPGGA,190700.208,,,,,0,00,,,M,0.0,M,,0000*53
$GPGSA,A,1,,,,,,,,,,,,,,,*1E
$GPRMC,190700.208,V,,,,,,,060419,,,N*42
$GPGGA,190701.203,,,,,0,00,,,M,0.0,M,,0000*59
$GPGSA,A,1,,,,,,,,,,,,,,,*1E
$GPRMC,190701.203,V,,,,,,,060419,,,N*48
$GPGGA,190702.208,,,,,0,00,,,M,0.0,M,,0000*51
$GPGSA,A,1,,,,,,,,,,,,,,,*1E
$GPRMC,190702.208,V,,,,,,,060419,,,N*40
$GPGGA,190703.203,,,,,0,00,,,M,0.0,M,,0000*5B
$GPGSA,A,1,,,,,,,,,,,,,,,*1E
$GPGSV,3,1,12,16,47,102,27,18,00,000,28,23,34,229,04,27,16,021,25*74
$GPGSV,3,2,12,30,53,143,28,21,62,266,,10,31,103,,22,27,343,*77
$GPGSV,3,3,12,09,22,266,,13,18,323,,29,17,167,,17,17,203,*74
$GPRMC,190703.203,V,,,,,,,060419,,,N*4A
$GPGGA,190704.203,,,,,0,00,,,M,0.0,M,,0000*5C
$GPGSA,A,1,,,,,,,,,,,,,,,*1E
$GPRMC,190704.203,V,,,,,,,060419,,,N*4D
$GPGGA,190705.203,,,,,0,00,,,M,0.0,M,,0000*5D
$GPGSA,A,1,,,,,,,,,,,,,,,*1E
$GPRMC,190705.203,V,,,,,,,060419,,,N*4C
$GPGGA,190706.203,,,,,0,00,,,M,0.0,M,,0000*5E
$GPGSA,A,1,,,,,,,,,,,,,,,*1E
$GPRMC,190706.203,V,,,,,,,060419,,,N*4F
$GPGGA,190707.203,,,,,0,00,,,M,0.0,M,,0000*5F
$GPGSA,A,1,,,,,,,,,,,,,,,*1E
$GPRMC,190707.203,V,,,,,,,060419,,,N*4E
$GPGGA,190708.203,,,,,0,00,,,M,0.0,M,,0000*50
$GPGSA,A,1,,,,,,,,,,,,,,,*1E
$GPGSV,3,1,12,09,22,266,22,16,47,102,26,18,00,000,28,23,34,229,04*78
$GPGSV,3,2,12,27,16,021,27,30,5B
$GPGSV,3,3,12,22,27,343,,13,18,323,,29,17,167,,17,17,203,*7E
$GPRMC,190708.203,V,,,,,,,060419,,,N*41
$GPGGA,190709.203,,,,,0,00,,,M,0.0,M,,0000*51
$GPGSA,A,1,,,,,,,,,,,,,,,*1E
$GPRMC,190709.203,V,,,,,,,060419,,,N*40
$GPGGA,190710.203,,,,,0,00,,,M,0.0,M,,0000*59
$GPGSA,A,1,,,,,,,,,,,,,,,*1E
$GPRMC,190710.203,V,,,,,,,060419,,,N*48
$GPGGA,190711.203,,,,,0,00,,,M,0.0,M,,0000*58
$GPGSA,A,1,,,,,,,,,,,,,,,*1E
$GPRMC,190711.203,V,,,,,,,060419,,,N*49
$GPGGA,190712.203,,,,,0,00,,,M,0.0,M,,0000*5B
$GPGSA,A,1,,,,,,,,,,,,,,,*1E
$GPRMC,190712.203,V,,,,,,,060419,,,N*4A
$GPGGA,190713.203,,,,,0,00,,,M,0.0,M,,0000*5A
$GPGSA,A,1,,,,,,,,,,,,,,,*1E
$GPGSV,3,1,12,09,22,266,26,16,47,102,33,18,00,000,29,23,34,229,04*79
$GPGSV,3,2,12,27,16,021,31,30,53,143,28,21,62,266,,10,31,103,*75
$GPGSV,3,3,12,22,27,343,,13,18,323,,29,17,167,,17,17,203,*7E
$GPRMC,190713.203,V,,,,,,,060419,,,N*4B
$GPGGA,190714.203,,,,,0,00,,,M,0.0,M,,0000*5D
$GPGSA,A,1,,,,,,,,,,,,,,,*1E
$GPRMC,190714.203,V,,,,,,,060419,,,N*4C
$GPGGA,190715.203,,,,,0,00,,,M,0.0,M,,0000*5C
$GPGSA,A,1,,,,,,,,,,,,,,,*1E
$GPRMC,190715.203,V,,,,,,,060419,,,N*4D
$GPGGA,190716.202,,,,,0,00,,,M,0.0,M,,0000*5E
$GPGSA,A,1,,,,,,,,,,,,,,,*1E
$GPRMC,190716.202,V,,,,,,,060419,,,N*4F
$GPGGA,190717.203,,,,,0,00,,,M,0.0,M,,0000*5E
$GPGSA,A,1,,,,,,,,,,,,,,,*1E
$GPRMC,190717.203,V,,,,,,,060419,,,N*4F
,,,,,,,,*1E
$GPGSV,3,1,12,09,22,266,25,16,47,102,27,18,00,000,23,27,16,021,27*7A
$GPGSV,3,2,12,30,53,143,32,21,62,266,,23,34,229,,10,31,103,*72
$GPGSV,3,3,12,22,27,343,,13,18,323,,29,17,167,,17,17,203,*7E
$GPRMC,190718.203,V,,,,,,,060419,,,N*40
$GPGGA,190719.203,,,,,0,00,,,M,0.0,M,,0000*50
$GPGSA,A,1,,,,,,,,,,,,,,,*1E
$GPRMC,190719.203,V,,,,,,,060419,,,N*41
$GPGGA,190720.203,,,,,0,00,,,M,0.0,M,,0000*5A
$GPGSA,A,1,,,,,,,,,,,,,,,*1E
$GPRMC,190720.203,V,,,,,,,060419,,,N*4B
$GPGGA,190721.203,,,,,0,00,,,M,0.0,M,,0000*5B
$GPGSA,A,1,,,,,,,,,,,,,,,*1E
$GPRMC,190721.203,V,,,,,,,060419,,,N*4A
$GPGGA,190722.203,,,,,0,00,,,M,0.0,M,,0000*58
$GPGSA,A,1,,,,,,,,,,,,,,,*1E
$GPRMC,190722.203,V,,,,,,,060419,,,N*49
$GPGGA,190723.203,,,,,0,00,,,M,0.0,M,,0000*59
$GPGSA,A,1,,,,,,,29,,10,31,103,*72
$GPGSV,3,3,12,22,27,343,,13,18,323,,29,17,167,,17,17,203,*7E
$GPRMC,190723.203,V,,,,,,,060419,,,N*48
$GPGGA,194407.222,3453.8913,N,08637.0770,W,1,03,3.2,30.6,M,-30.6,M,,0000*54
$GPGSA,A,2,30,27,09,,,,,,,,,,4.5,3.2,3.2*3D
$GPRMC,194407.222,A,3453.8913,N,08637.0770,W,3.26,323.22,060419,,,A*76
$GPGGA,194408.222,3453.8914,N,08637.0773,W,1,03,3.2,30.6,M,-30.6,M,,0000*5F
$GPGSA,A,2,30,27,09,,,,,,,,,,4.5,3.2,3.2*3D
$GPGSV,3,1,12,30,30,316,31,27,20,041,33,09,18,232,31,13,44,337,26*7C
$GPGSV,3,2,12,18,03,313,28,23,11,198,26,22,66,005,,20,56,338,*73
$GPGSV,3,3,12,21,40,196,,16,37,099,,02,31,294,,32,23,321,*7F
$GPRMC,194408.222,A,3453.8914,N,08637.0773,W,1.82,280.58,060419,,,A*74
$GPGGA,194409.222,3453.8902,N,08637.0805,W,1,03,3.2,30.6,M,-30.6,M,,0000*57
$GPGSA,A,2,30,27,09,,,,,,,,,,4.5,3.2,3.2*3D
$GPRMC,194409.222,A,3453.8902,N,08637.0805,W,0.27,49.28,060419,,,A*42
$GPGGA,194410.210,3453.8926,N,08637.0847,W,1,03,3.2,30.6,M,-30.6,M,,0000*5E
$GPGSA,A,2,30,27,09,,,,,,,,,,4.5,3.2,3.2*3D
$GPRMC,194410.210,A,3453.8926,N,08637.0847,W,1.11,121.60,060419,,,A*7C
$GPGGA,194411.210,3453.8916,N,08637.0850,W,1,03,3.2,30.6,M,-30.6,M,,0000*5A
$GPGSA,A,2,30,27,09,,,,,,,,,,4.5,3.2,3.2*3D
$GPRMC,194411.210,A,3453.8916,N,08637.0850,W,1.85,171.33,060419,,,A*76
$GPGGA,194412.215,3453.8923,N,08637.0848,W,1,03,3.2,30.6,M,-30.6,M,,0000*53
$GPGSA,A,2,30,27,09,,,,,,,,,,4.5,3.2,3.2*3D
$GPRMC,194412.215,A,3453.8923,N,08637.0848,W,1.74,253.59,060419,,,A*7E
$GPGGA,194413.215,3453.8920,N,08637.0932,W,1,03,3.3,30.6,M,-30.6,M,,0000*5C
$GPGSA,A,2,30,27,09,,,,,,,,,,4.5,3.3,3.2*3C
$GPGSV,3,1,12,30,30,316,32,27,20,041,28,09,18,232,37,13,44,337,24*71
$GPGSV,3,2,12,18,03,313,35,23,11,198,43,22,66,005,,20,56,338,*7C
$GPGSV,3,3,12,21,40,196,,16,37,099,,02,31,294,,32,23,321,*7F
$GPRMC,194413.215,A,3453.8920,N,08637.0932,W,0.80,267.18,060419,,,A*78
$GPGGA,194414.221,3453.8891,N,08637.0909,W,1,03,3.3,30.6,M,-30.6,M,,0000*5F
$GPGSA,A,2,30,27,09,,,,,,,,,,4.5,3.3,3.2*3C
$GPRMC,194414.221,A,3453.8891,N,08637.0909,W,0.48,351.18,060419,,,A*7B
$GPGGA,194415.221,3453.8881,N,08637.0799,W,1,03,3.3,30.6,M,-30.6,M,,0000*58
$GPGSA,A,2,30,27,09,,,,,,,,,,4.5,3.3,3.2*3C
$GPRMC,194415.221,A,3453.8881,N,08637.0799,W,0.68,98.28,060419,,,A*4B
$GPGGA,194416.215,3453.8915,N,08637.0868,W,1,03,3.3,30.6,M,-30.6,M,,0000*51
$GPGSA,A,2,30,27,09,,,,,,,,,,4.5,3.3,3.2*3C
$GPRMC,194416.215,A,3453.8915,N,08637.0868,W,0.62,117.23,060419,,,A*75
